[
    {
        "id": "91511500208903524F",
        "name": "宜宾锅炉厂",
        "address": "白沙湾街马鞍石",
        "lat": "28.747476",
        "lng": "104.814619"
    },
    {
        "id": "91511500791823539W",
        "name": "宜宾普什联动科技有限公司",
        "address": "四川省宜宾市临港经济技术开发区长江北路17号533房",
        "lat": "28.780733",
        "lng": "104.672951"
    },
    {
        "id": "91511500MA7M9X5C90",
        "name": "宜宾鸿锐科技有限公司",
        "address": "四川省宜宾市临港经开区港园路西段5号西部食品商贸城11幢2层26号",
        "lat": "28.803918",
        "lng": "104.710345"
    },
    {
        "id": "91511500727475912D",
        "name": "四川长江造纸仪器有限责任公司",
        "address": "四川省宜宾市临港经济经开区智能终端产业示范园B区2#1层、2层",
        "lat": "28.784765",
        "lng": "104.669194"
    },
    {
        "id": "91511500MA660M8N29",
        "name": "宜宾健翌精密机械制造有限公司",
        "address": "四川省宜宾市临港经开区沙坪街道国兴大道沙坪路9号数据中心817-1室",
        "lat": "28.797745",
        "lng": "104.696660"
    },
    {
        "id": "91511500MA636DRA2A",
        "name": "宜宾铭锦精密机械制造有限公司",
        "address": "四川省宜宾市三江新区罗龙街道龙游路209号",
        "lat": "28.751768",
        "lng": "104.643215"
    },
    {
        "id": "91511500MA66XQRU12",
        "name": "宜宾德谨精密机械制造有限公司",
        "address": "四川省宜宾市临港经开区临港大道三段5号（塑料包装制品生产项目）2幢",
        "lat": "28.784765",
        "lng": "104.669194"
    },
    {
        "id": "91511500MAC6T8H53E",
        "name": "宜宾弘昌精密机械有限公司",
        "address": "四川省宜宾市临港经开区长江北路西段附三段76号悦兴智联产业生态园3幢1楼5号",
        "lat": "28.796799",
        "lng": "104.716322"
    },
    {
        "id": "91511500MAC8L8KK3Y",
        "name": "宜宾均锐机械设备制造有限公司",
        "address": "四川省宜宾市临港经开区长江北路西段附二段315号中国西南轻工博览城31栋1层124号",
        "lat": "28.797923",
        "lng": "104.706013"
    },
    {
        "id": "91511500MA628LFD24",
        "name": "四川格福玛建筑工程机械有限公司",
        "address": "四川省宜宾市临港经开区港园路西段5号西部食品商贸城6幢1层3号",
        "lat": "28.803918",
        "lng": "104.710345"
    },
    {
        "id": "91511500MAC6NUNB8T",
        "name": "宜宾华放机械设备制造有限公司",
        "address": "四川省宜宾市临港经开区港园路西段5号西部食品商贸城25幢3层5号",
        "lat": "28.803918",
        "lng": "104.710345"
    },
    {
        "id": "91511500MAC0YBJ64D",
        "name": "宜宾领智机械设备有限公司",
        "address": "四川省宜宾市临港经开区长江北路西段附二段四川大学宜宾园区产业技术研究楼3楼",
        "lat": "28.791055",
        "lng": "104.702304"
    },
    {
        "id": "91511500MABRWBYC06",
        "name": "宜宾元恒机械设备有限公司",
        "address": "四川省宜宾市临港经开区港园路西段5号西部食品商贸城32幢2层16号",
        "lat": "28.803918",
        "lng": "104.710345"
    },
    {
        "id": "91511500MA7H83939F",
        "name": "宜宾颖泽机械制造有限公司",
        "address": "四川省宜宾市临港经开区化工路70号临港国际3幢4层1号",
        "lat": "28.786129",
        "lng": "104.672010"
    },
    {
        "id": "91511500MACFHL8M34",
        "name": "宜宾睿昇机械制造有限公司",
        "address": "四川省宜宾市临港经开区常棣路1号一电航空航天智能制造产业基地2幢",
        "lat": "28.792777",
        "lng": "104.684859"
    },
    {
        "id": "91511500584235224U",
        "name": "宜宾市腾川汽车有限责任公司",
        "address": "宜宾市临港开发区长江北路西段",
        "lat": "28.784765",
        "lng": "104.669194"
    },
    {
        "id": "915115006879252446",
        "name": "宜宾市普瑞姆温差电冷热泵有限责任公司",
        "address": "翠屏区白沙湾红星路33号七九九厂住-43栋1层42-1号",
        "lat": "28.771479",
        "lng": "104.654188"
    },
    {
        "id": "91511500MABYUPN65X",
        "name": "宜宾信诚制冷设备有限公司",
        "address": "四川省宜宾市临港经开区长江北路西段附二段315号中国西南轻工博览城4幢1层124号",
        "lat": "28.799739",
        "lng": "104.715727"
    },
    {
        "id": "91511503MA62A4UG72",
        "name": "宜宾鼎天新材料科技有限公司",
        "address": "宜宾市南溪区罗龙街道办事处",
        "lat": "28.838750",
        "lng": "104.986000"
    },
    {
        "id": "91511500MA62ENL613",
        "name": "宜宾拓丰机械有限公司",
        "address": "宜宾市长江北路西段附二段315号中国西南轻工博览城19幢3层302号",
        "lat": "28.798215",
        "lng": "104.708339"
    },
    {
        "id": "91511500MA7J15M22P",
        "name": "宜宾福阳机械有限公司",
        "address": "四川省宜宾市临港经开区兴港路西段136号宜宾金烽电子科技智能终端产业园1幢厂房3楼",
        "lat": "28.797264",
        "lng": "104.726348"
    },
    {
        "id": "91511500MA7HK5WB1E",
        "name": "宜宾双园机械有限公司",
        "address": "四川省宜宾市临港经开区兴港路西段136号宜宾金烽电子科技智能终端产业园1幢厂房1楼",
        "lat": "28.797264",
        "lng": "104.726348"
    },
    {
        "id": "9151150030935769XF",
        "name": "宜宾欣航航空科技有限责任公司",
        "address": "宜宾市临港区沙坪镇泰兴路龙顺花园小区综合楼２０３、２０４室",
        "lat": "28.790792",
        "lng": "104.689348"
    },
    {
        "id": "91511500MAAGW13N4X",
        "name": "宜宾市智威冲压件有限公司",
        "address": "四川省宜宾市临港经开区港园路西段16号四川宜宾智威科技产业园6幢厂房",
        "lat": "28.808870",
        "lng": "104.731831"
    },
    {
        "id": "91511500MA62A7R64D",
        "name": "宜宾易祥电子配件有限公司",
        "address": "宜宾临港经济技术开发区港园路西段63号105号厂房",
        "lat": "28.816672",
        "lng": "104.740878"
    },
    {
        "id": "91511500782285003C",
        "name": "宜宾市翠屏区中强磁性材料加工厂",
        "address": "宜宾市临港经开区港园路西段63号金川电子108幢1层",
        "lat": "28.816672",
        "lng": "104.740878"
    },
    {
        "id": "91511500MAACNDC035",
        "name": "宜宾博文兴五金加工有限公司",
        "address": "四川省宜宾市临港经开区沙坪街道顺南社区顺南街53号",
        "lat": "28.789082",
        "lng": "104.680541"
    },
    {
        "id": "91511500MA68THNG7K",
        "name": "宜宾健伟机械制造有限公司",
        "address": "四川省宜宾市翠屏区凉姜镇新光村核桃组32号",
        "lat": "28.758563",
        "lng": "104.644534"
    },
    {
        "id": "91511500MA6AE6R52J",
        "name": "宜宾合聚机电设备有限公司",
        "address": "四川省宜宾市临港经开区长江北路西段附二段315号中国西南轻工博览城7幢1层107号",
        "lat": "28.799739",
        "lng": "104.715727"
    },
    {
        "id": "915115006757934671",
        "name": "宜宾金惠机械制造有限责任公司",
        "address": "宜宾临港经济技术开发区磅礴路北段99号",
        "lat": "28.815434",
        "lng": "104.746043"
    },
    {
        "id": "91511500085808753K",
        "name": "宜宾骏畅机械有限公司",
        "address": "宜宾市翠屏区白沙组团黄桷坪花园6幢1层14号",
        "lat": "28.776855",
        "lng": "104.660605"
    },
    {
        "id": "91511500MACHJ5J02L",
        "name": "宜宾利鹏机械有限公司",
        "address": "四川省宜宾市临港经开区J-02-01（d）宜宾腾卓智能终端产业基地7幢2楼25室",
        "lat": "28.801161",
        "lng": "104.714331"
    },
    {
        "id": "91511500MA69JFAK8U",
        "name": "宜宾丰科精密机械有限公司",
        "address": "四川省宜宾市临港经开区长江北路西段附三段90号新翔智联科技产业园3栋1楼",
        "lat": "28.802916",
        "lng": "104.721750"
    },
    {
        "id": "91511503327023685B",
        "name": "四川蓝飞机械有限公司",
        "address": "宜宾市南溪区罗龙街道红光街149号2栋",
        "lat": "28.839421",
        "lng": "104.962313"
    },
    {
        "id": "91511500MA65KXMB1Y",
        "name": "宜宾佰德科技有限公司",
        "address": "四川省宜宾临港经济技术开发区港园大道西段附三段328附1号",
        "lat": "28.751768",
        "lng": "104.643215"
    },
    {
        "id": "91511500MA7KDLCQ5G",
        "name": "宜宾市诚伟自动化设备有限公司",
        "address": "四川省宜宾市三江新区罗龙街道杉木村1社龙游路235号",
        "lat": "29.098883",
        "lng": "104.595769"
    },
    {
        "id": "91511500MA6AP4DC56",
        "name": "宜宾三译智能机器人有限公司",
        "address": "四川省宜宾市临港经开区港园大道西段9号301室",
        "lat": "28.808061",
        "lng": "104.721783"
    },
    {
        "id": "91511500MA62A1W19D",
        "name": "宜宾诺菲特机器人制造有限公司",
        "address": "宜宾市临港经济技术开发区港园大道西段18号",
        "lat": "28.751768",
        "lng": "104.643215"
    },
    {
        "id": "91511500MA7NKTCF82",
        "name": "宜宾盛伦自动化技术有限公司",
        "address": "四川省宜宾市三江新区宋家镇安置房迎曦园1层1号商铺",
        "lat": "28.747895",
        "lng": "104.860450"
    },
    {
        "id": "91511502MA6760PA8T",
        "name": "宜宾市铭鑫科技有限公司",
        "address": "宜宾市翠屏区宋家镇四川长江工业园区智能终端产业园58号标准厂房",
        "lat": "28.758563",
        "lng": "104.644534"
    },
    {
        "id": "91511500MA62A5HJ1L",
        "name": "宜宾海神针振动器材有限公司",
        "address": "宜宾临港经济技术开发区中小企业科技创新孵化园区6#厂房二楼",
        "lat": "28.783103",
        "lng": "104.666085"
    },
    {
        "id": "91511502MA6B0C3H96",
        "name": "宜宾轩驰智能科技有限公司",
        "address": "宜宾市翠屏区宋家镇四川长江工业园区智能终端产业园27号标准厂房",
        "lat": "28.758563",
        "lng": "104.644534"
    },
    {
        "id": "91511500MAC5F8EKXL",
        "name": "宜宾新焱源机电有限公司",
        "address": "四川省宜宾市临港经开区兴港路西段134号智能终端产业园B区22幢2楼201号",
        "lat": "28.796828",
        "lng": "104.724330"
    },
    {
        "id": "91511500MABWP5X222",
        "name": "宜宾李义焊接设备有限公司",
        "address": "四川省宜宾市三江新区罗龙街道幸福路西路179号兴隆社区8号楼2号",
        "lat": "28.751768",
        "lng": "104.643215"
    },
    {
        "id": "91511500MA689KKT3B",
        "name": "四川凡欧机械制造有限公司",
        "address": "四川省宜宾市临港经济技术开发区港园大道西段18号3栋",
        "lat": "28.751768",
        "lng": "104.643215"
    },
    {
        "id": "915115005775732685",
        "name": "宜宾金川机械制造有限公司",
        "address": "宜宾市临港经济开发区沙坪镇宜宾金川电子有限公司生产区内",
        "lat": "28.751768",
        "lng": "104.643215"
    },
    {
        "id": "91511500MA65HWPU7N",
        "name": "宜宾市瑞达模具有限公司",
        "address": "宜宾临港经济技术开发区港园西路63号金川电子有限责任公司103厂房",
        "lat": "28.816672",
        "lng": "104.740878"
    },
    {
        "id": "91511500MA63CP6Q5W",
        "name": "宜宾正梓源精密钢材有限公司",
        "address": "四川省宜宾市临港经开区港园路西段71号宜宾正集源智能产业园5幢1层",
        "lat": "28.807634",
        "lng": "104.723813"
    },
    {
        "id": "91511500MA66YXEU3M",
        "name": "宜宾市荣信模具有限公司",
        "address": "四川省宜宾市临港经开区兴港路西段136号宜宾金烽电子科技智能终端产业园1幢108室",
        "lat": "28.797264",
        "lng": "104.726348"
    },
    {
        "id": "91511500MA63YTNJ7Q",
        "name": "宜宾金锋科技集团有限公司",
        "address": "四川省宜宾市临港经开区兴港路西段136号",
        "lat": "28.797264",
        "lng": "104.726348"
    },
    {
        "id": "91511500MA7DKGPH2G",
        "name": "宜宾贤世锐弘机械模具加工厂",
        "address": "四川省宜宾市临港经开区兴港路西段136号宜宾君信电子科技智能终端产业园2幢厂房一层",
        "lat": "28.797264",
        "lng": "104.726348"
    },
    {
        "id": "915115003269977795",
        "name": "宜宾杰立德精密模具制造有限公司",
        "address": "宜宾市临港经济开发区港园大道西段１８号",
        "lat": "28.751768",
        "lng": "104.643215"
    },
    {
        "id": "91511500MAACL32879",
        "name": "宜宾市昊智精密模具有限公司",
        "address": "四川省宜宾市临港经开区兴港西段136号宜宾金烽电子科技智能终端产业园1幢208室",
        "lat": "28.784765",
        "lng": "104.669194"
    },
    {
        "id": "91511500337846474C",
        "name": "宜宾临港开发区睿辉磁性材料有限责任公司",
        "address": "宜宾市翠屏区下江北白沙湾国营第七九九厂内",
        "lat": "28.771450",
        "lng": "104.656395"
    },
    {
        "id": "915115000541280856",
        "name": "宜宾壁诚环境科技有限公司",
        "address": "宜宾市临港开发区长江北路西段",
        "lat": "28.784765",
        "lng": "104.669194"
    },
    {
        "id": "91511500MA658NWY0F",
        "name": "宜宾吉记智能装备有限公司",
        "address": "翠屏区白沙湾街道四川省宜宾市临港经开区国兴大道沙坪路9号产业总部基地科创大楼B座1幢7层23号",
        "lat": "28.797745",
        "lng": "104.696660"
    },
    {
        "id": "91511500MA6AKA5J0U",
        "name": "宜宾宇沃自动化设备有限公司",
        "address": "四川省宜宾市临港经开区新田湾路98号2栋",
        "lat": "28.807727",
        "lng": "104.718871"
    },
    {
        "id": "91511500MA67A6PW6L",
        "name": "宜宾三德鑫电子科技有限公司",
        "address": "四川省宜宾市临港经济技术开发区长江北路西段附三段9号宜宾格莱特科技园5栋",
        "lat": "28.802916",
        "lng": "104.721750"
    },
    {
        "id": "91511500MA69QH4MXR",
        "name": "四川猛犸半导体科技有限公司",
        "address": "四川省宜宾市临港经开区长江北路西段附三段17号企业服务中心731室",
        "lat": "28.802916",
        "lng": "104.721750"
    },
    {
        "id": "91511500MA6B09F91N",
        "name": "宜宾星悦配件有限公司",
        "address": "四川省宜宾市临港经开区新田湾路98号3栋",
        "lat": "28.807727",
        "lng": "104.718871"
    },
    {
        "id": "91511500MA68RN8X6T",
        "name": "宜宾市宜创智谷科技有限公司",
        "address": "四川省宜宾市临港经开区长江北路西段附三段76号悦兴智联产业生态园1幢1楼",
        "lat": "28.796799",
        "lng": "104.716322"
    },
    {
        "id": "91511500MA7H13BC7P",
        "name": "宜宾力鼎新能源科技有限公司",
        "address": "四川省宜宾市三江新区宋家镇长江工业园区智能终端产业园B1号楼1层",
        "lat": "28.775047",
        "lng": "104.665420"
    },
    {
        "id": "91511500MA67G3XE4T",
        "name": "四川尚善医疗设备有限公司",
        "address": "四川省宜宾市临港经开区龙头山路199号临港新天地2幢5层529-54号",
        "lat": "28.792561",
        "lng": "104.684247"
    },
    {
        "id": "91511529MA7N5DPE73",
        "name": "四川全越智能科技有限公司",
        "address": "四川省宜宾市三江新区产业大道6号台群智能机械产业园项目一期6幢厂房1楼",
        "lat": "28.788142",
        "lng": "104.674241"
    },
    {
        "id": "91511500MA68PKFCX3",
        "name": "四川博纳康医疗器械有限公司",
        "address": "四川省宜宾市临港经开区长江北路西段附三段9号宜宾格莱特科技园厂房1幢",
        "lat": "28.802916",
        "lng": "104.721750"
    },
    {
        "id": "91511500MA6AMX9P9C",
        "name": "四川贝喜康医疗器械有限公司",
        "address": "四川省宜宾市临港经开区港园路西段31号苏格智能产业基地6幢",
        "lat": "28.810932",
        "lng": "104.730264"
    },
    {
        "id": "91511500MA67U49T3Y",
        "name": "宜宾市川意龙科技有限公司",
        "address": "宜宾市临港经开区新田湾路98号8栋一楼",
        "lat": "28.807727",
        "lng": "104.718871"
    },
    {
        "id": "91511500MA7F8U8G0K",
        "name": "四川嘉盛环境设备制造有限公司",
        "address": "四川省宜宾市三江新区宋家镇长江工业园区智能终端产业园B2号楼8层14号",
        "lat": "28.775047",
        "lng": "104.665420"
    },
    {
        "id": "91511500MACA62YU8J",
        "name": "宜宾名匠优品酒业有限公司",
        "address": "四川省宜宾市三江新区国兴大道护国路79号铜雀台7幢2单元6层2号",
        "lat": "28.790785",
        "lng": "104.678489"
    },
    {
        "id": "91511500MABMJX7H4F",
        "name": "四川铄金机电有限责任公司",
        "address": "四川省宜宾市临港经开区长江北路西段附二段315号中国西南轻工博览城21幢1层104号",
        "lat": "28.799739",
        "lng": "104.715727"
    },
    {
        "id": "91511500MA681E2R2L",
        "name": "四川鹏静安防科技有限公司",
        "address": "四川省宜宾市临港经开区长江北路西段附二段315号中国西南轻工博览城10幢3层308号",
        "lat": "28.799739",
        "lng": "104.715727"
    },
    {
        "id": "91511500MA66YB1647",
        "name": "大族锂电（宜宾）智能装备有限公司",
        "address": "四川省宜宾市临港经开区沙坪街道国兴大道沙坪路段9号8楼830室",
        "lat": "28.784765",
        "lng": "104.669194"
    },
    {
        "id": "91511500MA66D8A263",
        "name": "四川酷的智能科技有限公司",
        "address": "四川省宜宾市临港经开区国兴大道科技创新中心D1座-C座3层301号附2号",
        "lat": "28.806692",
        "lng": "104.720874"
    },
    {
        "id": "91511500MAC5GUYL0P",
        "name": "宜宾鼎程机电设备有限公司",
        "address": "四川省宜宾市临港经开区白沙湾学堂路26号地中海蓝湾25幢1单元9层2号",
        "lat": "28.776783",
        "lng": "104.666405"
    },
    {
        "id": "91511500MABXCAEA0G",
        "name": "四川康本智能装备有限公司",
        "address": "四川省宜宾市三江新区宋家镇长江工业园区智能终端产业园A02号二楼103室",
        "lat": "28.775047",
        "lng": "104.665420"
    },
    {
        "id": "91511500MABU78EQ67",
        "name": "宜宾天控新能源有限公司",
        "address": "四川省宜宾市临港经开区国兴大道沙坪路16号大数据产业园东塔楼6楼",
        "lat": "28.794990",
        "lng": "104.698462"
    },
    {
        "id": "91511500MABPPN5C9P",
        "name": "宜宾盈创智能装备有限公司",
        "address": "四川省宜宾市临港经开区龙头山路199号临港新天地2幢5楼529-51号",
        "lat": "28.792561",
        "lng": "104.684247"
    },
    {
        "id": "91340200092141651L",
        "name": "宜宾凯翼汽车有限公司",
        "address": "宜宾临港经济技术开发区临港大道17号企业服务中心328室",
        "lat": "28.805864",
        "lng": "104.724703"
    },
    {
        "id": "91511500MA66MRGX93",
        "name": "奇瑞新能源汽车股份有限公司宜宾分公司",
        "address": "宜宾临港经济技术开发区长江北路西段附三段17号企业服务中心626室",
        "lat": "28.802916",
        "lng": "104.721750"
    },
    {
        "id": "91511500MA654DN30H",
        "name": "宜宾宜瑞汽车有限公司",
        "address": "四川省宜宾市临港经开区国兴大道沙坪路段9号数据中心822室",
        "lat": "28.790954",
        "lng": "104.690587"
    },
    {
        "id": "91511500694842738L",
        "name": "宜宾天宝机械有限责任公司",
        "address": "宜宾临港开发区中小企业科技创新孵化园标准厂房一期5号楼第一层",
        "lat": "28.805340",
        "lng": "104.726837"
    },
    {
        "id": "91511500MA65EPNQ6F",
        "name": "四川宜宾尚色智能工程有限公司",
        "address": "四川省宜宾市临港经开区新田湾路9号宜宾拓硕智能终端产业园6幢3楼厂房",
        "lat": "28.807727",
        "lng": "104.718871"
    },
    {
        "id": "91511500MA7G04AD5R",
        "name": "宜宾吉永盛新材料科技有限公司",
        "address": "四川省宜宾市三江新区宋家镇长江工业园区智能终端产业园B7号楼1层",
        "lat": "28.775047",
        "lng": "104.665420"
    },
    {
        "id": "91511500MA7G40700X",
        "name": "宜宾明轩汽车配件有限公司",
        "address": "四川省宜宾市临港经开区火花村3社41号",
        "lat": "28.734035",
        "lng": "104.540570"
    },
    {
        "id": "91511500MA6BUTKJ3Q",
        "name": "宜宾市常翼汽车零部件有限责任公司",
        "address": "四川省宜宾市三江新区沙坪街道凌云路105号",
        "lat": "28.788470",
        "lng": "104.687645"
    },
    {
        "id": "91511500MA670RQ548",
        "name": "宜宾凯富汽车零部件有限公司",
        "address": "四川省宜宾市临港经开区港园大道西段18号",
        "lat": "28.784765",
        "lng": "104.669194"
    },
    {
        "id": "91511500MA6BB6WD4D",
        "name": "宜宾普翼汽车科技有限公司",
        "address": "四川省宜宾市临港经开区长江北路西段附三段17号",
        "lat": "28.805603",
        "lng": "104.724934"
    },
    {
        "id": "91511500MA62CPKC94",
        "name": "美特科技（宜宾）有限公司",
        "address": "四川省宜宾市临港经济技术开发区长江北路西段附三段17号企业服务中心810室",
        "lat": "28.802916",
        "lng": "104.721750"
    },
    {
        "id": "91511500MA64TMW2XX",
        "name": "宜宾市元征汽车科技有限公司",
        "address": "四川省宜宾市临港经开区李湾路1号正黄金色领地12幢1层16号",
        "lat": "28.790088",
        "lng": "104.669215"
    },
    {
        "id": "91511500MA69AT5445",
        "name": "宜宾市德川汽车电子有限公司",
        "address": "四川省宜宾市临港经开区长江北路西段附三段17号企业服务中心808-2室",
        "lat": "28.802916",
        "lng": "104.721750"
    },
    {
        "id": "91511500MAC63RWD41",
        "name": "宜宾华庆汽车部件有限公司",
        "address": "四川省宜宾市临港经开区宋家镇四川长江工业园区智能终端产业园D区1号楼",
        "lat": "28.784765",
        "lng": "104.669194"
    },
    {
        "id": "91510112MA64P6UJ0N",
        "name": "四川国腾汽车零部件制造有限公司",
        "address": "四川省宜宾市临港经开区国兴大道沙坪路段9号数据中心515室",
        "lat": "28.790954",
        "lng": "104.690587"
    },
    {
        "id": "91511500MABU3UB961",
        "name": "四川银轮新能源热管理系统有限公司",
        "address": "四川省宜宾市三江新区宋家镇长江工业园区智能终端产业园B2行政办公楼8层16号",
        "lat": "28.775047",
        "lng": "104.665420"
    },
    {
        "id": "91511500MAC1EKT21X",
        "name": "四川兴宇汽车零部件有限公司",
        "address": "四川省宜宾市临港经开区广进路2号1幢生产厂房",
        "lat": "28.811836",
        "lng": "104.741881"
    },
    {
        "id": "91511500MA62AAQA91",
        "name": "四川晟宇汽车零部件有限公司",
        "address": "宜宾市白沙组团v-c-3（a)地块（临港汽车客运站内）",
        "lat": "28.791491",
        "lng": "104.667520"
    },
    {
        "id": "91511500MA69L62E4B",
        "name": "宜宾欧仑催化科技有限公司",
        "address": "四川省宜宾市临港经开区沙坪街道国兴大道9号数据中心821室",
        "lat": "28.784765",
        "lng": "104.669194"
    },
    {
        "id": "91511500MAC3YC86X1",
        "name": "宜宾云石科技有限公司",
        "address": "四川省宜宾市临港经开区港园路西段5号西部食品商贸城9幢3层17号",
        "lat": "28.803918",
        "lng": "104.710345"
    },
    {
        "id": "91511500MA69JNFR94",
        "name": "四川豪智融科技有限公司",
        "address": "四川省宜宾市三江新区宋家镇长江工业园区智能终端产业园C2号楼4层和阁楼层",
        "lat": "28.775047",
        "lng": "104.665420"
    },
    {
        "id": "91511500MAACHCYE2Q",
        "name": "宜宾华米汽车科技有限公司",
        "address": "四川省宜宾市临港经开区沙坪街道宜宾港路北段7号",
        "lat": "28.791856",
        "lng": "104.754269"
    }
]